{"1386187425": {"Name": "Mrs. BINI  JOHN  FNP-C", "Address": "12413 JACKSONVILLE AVE, BAKERSFIELD, CA 93312", "Phone": "661-414-7664", "Specialty": "Nurse Practitioner", "Coordinates": {"latitude": 35.41157535, "longitude": -119.14061440704518}}, "1174725006": {"Name": "Dr. MICHAEL V VU  D.O.", "Address": "24900 HIGHWAY 202, TEHACHAPI, CA 93561", "Phone": "661-822-4402", "Specialty": "Internal Medicine", "Coordinates": null}, "1710029657": {"Name": "Dr. CHEN NAN HO  MD", "Address": "30979 ROAD 67, GOSHEN, CA 93291", "Phone": "559-651-2301", "Specialty": "Family Medicine", "Coordinates": {"latitude": 36.35131320583896, "longitude": -119.42385113385329}}, "1154709764": {"Name": "Dr. CHRISTINE MISAKO AKAMINE  M.D.", "Address": "11234 ANDERSON STREET, GME OFFICE WESTERLY SUITE C LOMA LINDA, CA 92354 United States", "Phone": "909-558-4074", "Specialty": "Internal Medicine", "Coordinates": null}, "1316206832": {"Name": "HOWARD WENHUNG LAN  D.O.", "Address": "11234 ANDERSON ST, SP1637 LOMA LINDA, CA 92354", "Phone": "909-558-4756", "Specialty": "Student in an Organized Health Care Education/Training Program", "Coordinates": null}, "1801129341": {"Name": "Dr. KAUNTEYA  REDDY  MD", "Address": "6109 W RAMSEY ST, BANNING, CA 92220", "Phone": "951-845-0313", "Specialty": "Internal Medicine", "Coordinates": null}, "1063741056": {"Name": "Dr. CHRISTIAN PATRICK CONDERMAN  M.D.", "Address": "77 MORAGA WAY STE G, ORINDA, CA 94563", "Phone": "925-254-6710", "Specialty": "Otolaryngology", "Coordinates": null}}