{"1073930343": {"Name": "EMAN  ELMI  DPM", "Address": "2637 SHADELANDS DR, WALNUT CREEK, CA 94598", "Phone": "925-464-1982", "Specialty": "Podiatrist", "Coordinates": {"latitude": 37.92682802214738, "longitude": -122.02417294739996, "closestMatch": "2637, Shadelands Drive, Shadelands Business Park, Walnut Creek, Contra Costa County, California, 94598, United States"}}, "1861462640": {"Name": "Dr. ANTHONY FRANCIS FIREK  MD", "Address": "1700 N WATERMAN AVE, SAN BERNARDINO, CA 92404", "Phone": "909-883-8611", "Specialty": "Internal Medicine", "Coordinates": {"latitude": 34.130217, "longitude": -117.278883, "closestMatch": "1700, North Waterman Avenue, San Bernardino, San Bernardino County, California, 92404, United States"}}, "1184629131": {"Name": "Dr. RICHARD LLOYD MALINICK  M.D.", "Address": "1125 VIA VERDE, SAN DIMAS, CA 91773", "Phone": "909-592-8170", "Specialty": "Orthopaedic Surgery", "Coordinates": {"latitude": 34.074034279069764, "longitude": -117.82897555813953, "closestMatch": "1125, Via Verde, San Dimas, California, 91773, United States"}}, "1467960690": {"Name": "JONATHAN  TAVAKOLI  DPM", "Address": "11932 GOSHEN AVE PH 1, LOS ANGELES, CA 90049", "Phone": "310-651-0098", "Specialty": "Podiatrist", "Coordinates": null}, "1831752013": {"Name": "JEREMY WADE KUBIAK", "Address": "11234 ANDERSON ST, LOMA LINDA, CA 92354", "Phone": "909-558-8085", "Specialty": "Student in an Organized Health Care Education/Training Program", "Coordinates": {"latitude": 34.04911185, "longitude": -117.26343554537584, "closestMatch": "Loma Linda University Medical Center, 11234, Anderson Street, Loma Linda, San Bernardino County, California, 92354, United States"}}, "1114910163": {"Name": "Dr. CARLA ELAINE HERRIFORD  M.D.", "Address": "6200 WILSHIRE BLVD, 1012 LOS ANGELES, CA 90048", "Phone": "323-931-7807", "Specialty": "Specialist", "Coordinates": null}, "1225293095": {"Name": "Dr. HASAN  BADDAY  M.D.", "Address": "16405 SAND CANYON AVE,  IRVINE, CA 92618", "Phone": "949-485-4257", "Specialty": "Pain Medicine", "Coordinates": {"latitude": 33.6611758, "longitude": -117.7750884073728, "closestMatch": "16405, Sand Canyon Avenue, Oak Creek, Irvine, Orange County, California, 92618, United States"}}, "1174152631": {"Name": "Dr. SUE MIN SOPHIA KWON  MD", "Address": "11234 ANDERSON ST, LOMA LINDA, CA 92354", "Phone": "909-558-4074", "Specialty": "Student in an Organized Health Care Education/Training Program", "Coordinates": {"latitude": 34.04911185, "longitude": -117.26343554537584, "closestMatch": "Loma Linda University Medical Center, 11234, Anderson Street, Loma Linda, San Bernardino County, California, 92354, United States"}}}